{
"type": "FeatureCollection",
"name": "stadia_epl",
"crs": { "type": "name", "properties": { "name": "urn:ogc:def:crs:OGC:1.3:CRS84" } },
"features": [
{ "type": "Feature", "properties": { "Name": "Emirates Stadium", "Team": "Arsenal", "Capacity": 60361, "Latitude": 51.554901, "Longitude": -0.108436, "Easting": 531236, "Northing": 185697, "Grid Reference": "TQ312856" }, "geometry": { "type": "Point", "coordinates": [ -0.108436, 51.554901 ] } },
{ "type": "Feature", "properties": { "Name": "Villa Park", "Team": "Aston Villa", "Capacity": 42788, "Latitude": 52.509201, "Longitude": -1.88508, "Easting": 407897, "Northing": 290151, "Grid Reference": "SP078901" }, "geometry": { "type": "Point", "coordinates": [ -1.88508, 52.509201 ] } },
{ "type": "Feature", "properties": { "Name": "Seward Stadium", "Team": "Bournemouth", "Capacity": 10700, "Latitude": 50.735199, "Longitude": -1.83839, "Easting": 411501, "Northing": 92855, "Grid Reference": "SZ115928" }, "geometry": { "type": "Point", "coordinates": [ -1.83839, 50.735199 ] } },
{ "type": "Feature", "properties": { "Name": "Amex Stadium", "Team": "Brighton and Hove Albion", "Capacity": 22374, "Latitude": 50.860901, "Longitude": -0.08014, "Easting": 535213, "Northing": 108577, "Grid Reference": "TQ352085" }, "geometry": { "type": "Point", "coordinates": [ -0.08014, 50.860901 ] } },
{ "type": "Feature", "properties": { "Name": "Turf Moor", "Team": "Burnley", "Capacity": 22546, "Latitude": 53.788799, "Longitude": -2.23018, "Easting": 384933, "Northing": 432522, "Grid Reference": "SD849325" }, "geometry": { "type": "Point", "coordinates": [ -2.23018, 53.788799 ] } },
{ "type": "Feature", "properties": { "Name": "Stamford Bridge", "Team": "Chelsea", "Capacity": 41837, "Latitude": 51.481602, "Longitude": -0.191034, "Easting": 525711, "Northing": 177401, "Grid Reference": "TQ257774" }, "geometry": { "type": "Point", "coordinates": [ -0.191034, 51.481602 ] } },
{ "type": "Feature", "properties": { "Name": "Selhurst Park", "Team": "Crystal Palace", "Capacity": 26309, "Latitude": 51.3983, "Longitude": -0.085455, "Easting": 533284, "Northing": 168324, "Grid Reference": "TQ332683" }, "geometry": { "type": "Point", "coordinates": [ -0.085455, 51.3983 ] } },
{ "type": "Feature", "properties": { "Name": "Goodison Park", "Team": "Everton", "Capacity": 40157, "Latitude": 53.438702, "Longitude": -2.96619, "Easting": 335914, "Northing": 393982, "Grid Reference": "SJ359939" }, "geometry": { "type": "Point", "coordinates": [ -2.96619, 53.438702 ] } },
{ "type": "Feature", "properties": { "Name": "Molineux", "Team": "Wolverhampton Wanderers", "Capacity": 27828, "Latitude": 52.590401, "Longitude": -2.13061, "Easting": 391249, "Northing": 299185, "Grid Reference": "SO912991" }, "geometry": { "type": "Point", "coordinates": [ -2.13061, 52.590401 ] } },
{ "type": "Feature", "properties": { "Name": "King Power Stadium", "Team": "Leicester City", "Capacity": 32262, "Latitude": 52.6203, "Longitude": -1.14217, "Easting": 458171, "Northing": 302849, "Grid Reference": "SK581028" }, "geometry": { "type": "Point", "coordinates": [ -1.14217, 52.6203 ] } },
{ "type": "Feature", "properties": { "Name": "Anfield", "Team": "Liverpool", "Capacity": 45522, "Latitude": 53.430801, "Longitude": -2.96096, "Easting": 336250, "Northing": 393098, "Grid Reference": "SJ362930" }, "geometry": { "type": "Point", "coordinates": [ -2.96096, 53.430801 ] } },
{ "type": "Feature", "properties": { "Name": "Etihad Stadium", "Team": "Manchester City", "Capacity": 47805, "Latitude": 53.483002, "Longitude": -2.20024, "Easting": 386809, "Northing": 398494, "Grid Reference": "SJ868984" }, "geometry": { "type": "Point", "coordinates": [ -2.20024, 53.483002 ] } },
{ "type": "Feature", "properties": { "Name": "Old Trafford", "Team": "Manchester United", "Capacity": 75811, "Latitude": 53.4631, "Longitude": -2.29139, "Easting": 380751, "Northing": 396301, "Grid Reference": "SJ807963" }, "geometry": { "type": "Point", "coordinates": [ -2.29139, 53.4631 ] } },
{ "type": "Feature", "properties": { "Name": "St James Park", "Team": "Newcastle United", "Capacity": 52387, "Latitude": 54.975601, "Longitude": -1.62179, "Easting": 424307, "Northing": 564619, "Grid Reference": "NZ243646" }, "geometry": { "type": "Point", "coordinates": [ -1.62179, 54.975601 ] } },
{ "type": "Feature", "properties": { "Name": "Carrow Road", "Team": "Norwich City", "Capacity": 27033, "Latitude": 52.622101, "Longitude": 1.30912, "Easting": 624081, "Northing": 307846, "Grid Reference": "TG240078" }, "geometry": { "type": "Point", "coordinates": [ 1.30912, 52.622101 ] } },
{ "type": "Feature", "properties": { "Name": "Bramall Lane", "Team": "Sheffield United", "Capacity": 32702, "Latitude": 53.3703, "Longitude": -1.47083, "Easting": 435307, "Northing": 386068, "Grid Reference": "SK353860" }, "geometry": { "type": "Point", "coordinates": [ -1.47083, 53.3703 ] } },
{ "type": "Feature", "properties": { "Name": "St Mary's Stadium", "Team": "Southampton", "Capacity": 32689, "Latitude": 50.9058, "Longitude": -1.39114, "Easting": 442907, "Northing": 111990, "Grid Reference": "SU429119" }, "geometry": { "type": "Point", "coordinates": [ -1.39114, 50.9058 ] } },
{ "type": "Feature", "properties": { "Name": "Vicarage Road", "Team": "Watford", "Capacity": 17477, "Latitude": 51.649799, "Longitude": -0.401569, "Easting": 510684, "Northing": 195766, "Grid Reference": "TQ106957" }, "geometry": { "type": "Point", "coordinates": [ -0.401569, 51.649799 ] } },
{ "type": "Feature", "properties": { "Name": "White Hart Lane", "Team": "Tottenham Hotspur", "Capacity": 36230, "Latitude": 51.603298, "Longitude": -0.065684, "Easting": 534057, "Northing": 191156, "Grid Reference": "TQ340911" }, "geometry": { "type": "Point", "coordinates": [ -0.065684, 51.603298 ] } },
{ "type": "Feature", "properties": { "Name": "Olympic Stadium", "Team": "West Ham", "Capacity": 60000, "Latitude": 51.5383, "Longitude": -0.016587, "Easting": 537653, "Northing": 184019, "Grid Reference": "TQ376840" }, "geometry": { "type": "Point", "coordinates": [ -0.016587, 51.5383 ] } }
]
}
